{
  "targets": {
    "home":       { "lat": 48.175421976678,  "lng": 17.126068557003457, "label": "Home (Račianska 95)",            "emoji": "🏠" },
    "cafe":       { "lat": 48.1490416,        "lng": 17.1171726,         "label": "Kaviareň Vták",                  "emoji": "☕" },
    "rudo_janka": { "lat": 48.395534,         "lng": 17.3090072,         "label": "Rudo a Janka",                   "emoji": "👨‍👩‍👧" },
    "parents":    { "lat": 48.3965142,        "lng": 17.3227352,         "label": "Parents (Červený Kameň)",        "emoji": "👪" },
    "krstna":     { "lat": 48.1594238,        "lng": 17.1607528,         "label": "Krstná (Trebišovská)",           "emoji": "🏡" },
    "zahrada":    { "lat": 48.1829391,        "lng": 17.3486593,         "label": "Záhrada (Poľná, Nová Dedinka)", "emoji": "🌿" }
  },
  "visits": {
    "home": [],
    "cafe": [],
    "rudo_janka": [],
    "parents": [],
    "krstna": [],
    "zahrada": []
  },
  "summary": {
    "home": 0, "cafe": 0, "rudo_janka": 0, "parents": 0, "krstna": 0, "zahrada": 0
  }
}
